[
  {
    "name": "Vermont Honey Festival",
    "description": "Annual celebration of Vermont's finest honeys featuring tastings, beekeeping demonstrations, and local vendors. Join us for a sweet weekend of honey-related activities!",
    "eventType": "FESTIVAL",
    "startDate": "2026-06-14",
    "endDate": "2026-06-15",
    "address": "Lake Champlain Fairgrounds",
    "city": "Burlington",
    "state": "Vermont",
    "latitude": 44.4759,
    "longitude": -73.2121,
    "imageUrl": "https://pub-2a6fcddb688c4e789a45f1a91c601c77.r2.dev/events/vermont-honey-festival.webp",
    "thumbnailUrl": "https://pub-2a6fcddb688c4e789a45f1a91c601c77.r2.dev/events/thumbnails/vermont-honey-festival.webp",
    "link": "https://vthoneyfestival.example.com"
  },
  {
    "name": "Beekeeping 101 Workshop",
    "description": "Learn the basics of beekeeping in this hands-on workshop. Perfect for beginners interested in starting their own hive. Includes all safety equipment.",
    "eventType": "CLASS",
    "startDate": "2026-03-08",
    "endDate": null,
    "address": "Denver Botanic Gardens",
    "city": "Denver",
    "state": "Colorado",
    "latitude": 39.7323,
    "longitude": -104.9593,
    "imageUrl": "https://pub-2a6fcddb688c4e789a45f1a91c601c77.r2.dev/events/beekeeping-101.webp",
    "thumbnailUrl": "https://pub-2a6fcddb688c4e789a45f1a91c601c77.r2.dev/events/thumbnails/beekeeping-101.webp",
    "link": "https://denverbotanicgardens.example.com/beekeeping"
  },
  {
    "name": "Texas State Honey Show",
    "description": "Texas' largest honey competition featuring entries from across the Lone Star State. Categories include extracted honey, comb honey, and specialty infusions.",
    "eventType": "FAIR",
    "startDate": "2026-04-18",
    "endDate": "2026-04-20",
    "address": "Austin Convention Center",
    "city": "Austin",
    "state": "Texas",
    "latitude": 30.2634,
    "longitude": -97.7392,
    "imageUrl": "https://pub-2a6fcddb688c4e789a45f1a91c601c77.r2.dev/events/texas-honey-show.webp",
    "thumbnailUrl": "https://pub-2a6fcddb688c4e789a45f1a91c601c77.r2.dev/events/thumbnails/texas-honey-show.webp",
    "link": "https://texashoneyshow.example.com"
  },
  {
    "name": "Savannah Honey Tasting Experience",
    "description": "Sample 20+ varieties of local and international honeys paired with artisan cheeses. Expert guides explain the nuances of each honey's terroir.",
    "eventType": "TASTING",
    "startDate": "2026-02-22",
    "endDate": null,
    "address": "The Honey House",
    "city": "Savannah",
    "state": "Georgia",
    "latitude": 32.0835,
    "longitude": -81.0998,
    "imageUrl": "https://pub-2a6fcddb688c4e789a45f1a91c601c77.r2.dev/events/savannah-tasting.webp",
    "thumbnailUrl": "https://pub-2a6fcddb688c4e789a45f1a91c601c77.r2.dev/events/thumbnails/savannah-tasting.webp",
    "link": "https://thehoneyhouse.example.com/tasting"
  },
  {
    "name": "California Almond Blossom Tour",
    "description": "Visit working apiaries during almond pollination season. See how bees and almonds work together, and taste fresh almond blossom honey.",
    "eventType": "TOUR",
    "startDate": "2026-02-15",
    "endDate": "2026-03-15",
    "address": "Bakersfield Bee Tours",
    "city": "Bakersfield",
    "state": "California",
    "latitude": 35.3733,
    "longitude": -119.0187,
    "imageUrl": "https://pub-2a6fcddb688c4e789a45f1a91c601c77.r2.dev/events/almond-blossom-tour.webp",
    "thumbnailUrl": "https://pub-2a6fcddb688c4e789a45f1a91c601c77.r2.dev/events/thumbnails/almond-blossom-tour.webp",
    "link": "https://bakersfieldtours.example.com"
  },
  {
    "name": "Portland Honey Market",
    "description": "Monthly market featuring Oregon's best local honey producers. Find raw honey, infused varieties, bee pollen, and handmade beeswax products.",
    "eventType": "MARKET",
    "startDate": "2026-03-01",
    "endDate": null,
    "address": "Portland Saturday Market",
    "city": "Portland",
    "state": "Oregon",
    "latitude": 45.5231,
    "longitude": -122.6683,
    "imageUrl": "https://pub-2a6fcddb688c4e789a45f1a91c601c77.r2.dev/events/portland-honey-market.webp",
    "thumbnailUrl": "https://pub-2a6fcddb688c4e789a45f1a91c601c77.r2.dev/events/thumbnails/portland-honey-market.webp",
    "link": "https://portlandsaturdaymarket.example.com"
  },
  {
    "name": "Great Smoky Mountain Honey Festival",
    "description": "Celebrate Appalachian honey traditions with sourwood honey tastings, mountain music, and beekeeping heritage demonstrations.",
    "eventType": "FESTIVAL",
    "startDate": "2026-08-22",
    "endDate": "2026-08-23",
    "address": "Gatlinburg Convention Center",
    "city": "Gatlinburg",
    "state": "Tennessee",
    "latitude": 35.7143,
    "longitude": -83.5102,
    "imageUrl": "https://pub-2a6fcddb688c4e789a45f1a91c601c77.r2.dev/events/smoky-mountain-festival.webp",
    "thumbnailUrl": "https://pub-2a6fcddb688c4e789a45f1a91c601c77.r2.dev/events/thumbnails/smoky-mountain-festival.webp",
    "link": "https://smokymountainhoney.example.com"
  },
  {
    "name": "Urban Beekeeping Workshop",
    "description": "Learn how to keep bees in the city! This workshop covers rooftop hives, balcony beekeeping, and working with neighbors and local regulations.",
    "eventType": "CLASS",
    "startDate": "2026-04-05",
    "endDate": null,
    "address": "Brooklyn Grange Farm",
    "city": "New York",
    "state": "New York",
    "latitude": 40.7128,
    "longitude": -74.0060,
    "imageUrl": "https://pub-2a6fcddb688c4e789a45f1a91c601c77.r2.dev/events/urban-beekeeping.webp",
    "thumbnailUrl": "https://pub-2a6fcddb688c4e789a45f1a91c601c77.r2.dev/events/thumbnails/urban-beekeeping.webp",
    "link": "https://brooklyngrangefarm.example.com/classes"
  },
  {
    "name": "Florida Tupelo Honey Tour",
    "description": "Exclusive tour of the Apalachicola River swamps where rare white tupelo honey is harvested. Limited spots available each spring.",
    "eventType": "TOUR",
    "startDate": "2026-05-01",
    "endDate": "2026-05-31",
    "address": "Wewahitchka Bee Tours",
    "city": "Wewahitchka",
    "state": "Florida",
    "latitude": 30.1146,
    "longitude": -85.1938,
    "imageUrl": "https://pub-2a6fcddb688c4e789a45f1a91c601c77.r2.dev/events/tupelo-tour.webp",
    "thumbnailUrl": "https://pub-2a6fcddb688c4e789a45f1a91c601c77.r2.dev/events/thumbnails/tupelo-tour.webp",
    "link": "https://tupelohoneytour.example.com"
  },
  {
    "name": "Minnesota State Fair Honey Competition",
    "description": "One of the nation's largest amateur honey competitions. Enter your honey, watch judging, and learn from master beekeepers.",
    "eventType": "FAIR",
    "startDate": "2026-08-27",
    "endDate": "2026-09-07",
    "address": "Minnesota State Fairgrounds",
    "city": "St. Paul",
    "state": "Minnesota",
    "latitude": 44.9811,
    "longitude": -93.1732,
    "imageUrl": "https://pub-2a6fcddb688c4e789a45f1a91c601c77.r2.dev/events/minnesota-fair.webp",
    "thumbnailUrl": "https://pub-2a6fcddb688c4e789a45f1a91c601c77.r2.dev/events/thumbnails/minnesota-fair.webp",
    "link": "https://mnstatefair.example.com/honey"
  },
  {
    "name": "Napa Valley Honey & Wine Pairing",
    "description": "Unique tasting event pairing local varietal honeys with Napa wines. Discover how honey enhances and complements fine wines.",
    "eventType": "TASTING",
    "startDate": "2026-05-16",
    "endDate": null,
    "address": "Napa Valley Honey Company",
    "city": "Napa",
    "state": "California",
    "latitude": 38.2975,
    "longitude": -122.2869,
    "imageUrl": "https://pub-2a6fcddb688c4e789a45f1a91c601c77.r2.dev/events/napa-pairing.webp",
    "thumbnailUrl": "https://pub-2a6fcddb688c4e789a45f1a91c601c77.r2.dev/events/thumbnails/napa-pairing.webp",
    "link": "https://napahoney.example.com/events"
  },
  {
    "name": "Seattle Honey Collective Market",
    "description": "Pacific Northwest honey producers gather at Pike Place for this special monthly market. Raw honey, mead, and bee products galore.",
    "eventType": "MARKET",
    "startDate": "2026-04-12",
    "endDate": null,
    "address": "Pike Place Market",
    "city": "Seattle",
    "state": "Washington",
    "latitude": 47.6097,
    "longitude": -122.3422,
    "imageUrl": "https://pub-2a6fcddb688c4e789a45f1a91c601c77.r2.dev/events/seattle-market.webp",
    "thumbnailUrl": "https://pub-2a6fcddb688c4e789a45f1a91c601c77.r2.dev/events/thumbnails/seattle-market.webp",
    "link": "https://pikeplacemarket.example.com/honey"
  },
  {
    "name": "Arizona Desert Honey Festival",
    "description": "Celebrate the unique honeys of the Sonoran Desert including saguaro, mesquite, and catclaw varieties. Desert beekeeping demonstrations included.",
    "eventType": "FESTIVAL",
    "startDate": "2026-03-28",
    "endDate": "2026-03-29",
    "address": "Tucson Botanical Gardens",
    "city": "Tucson",
    "state": "Arizona",
    "latitude": 32.2226,
    "longitude": -110.9747,
    "imageUrl": "https://pub-2a6fcddb688c4e789a45f1a91c601c77.r2.dev/events/arizona-festival.webp",
    "thumbnailUrl": "https://pub-2a6fcddb688c4e789a45f1a91c601c77.r2.dev/events/thumbnails/arizona-festival.webp",
    "link": "https://tucsonbotanical.example.com/honeyfest"
  },
  {
    "name": "Advanced Queen Rearing Course",
    "description": "Three-day intensive course on queen rearing techniques. Learn grafting, cell building, and queen introduction methods from expert breeders.",
    "eventType": "CLASS",
    "startDate": "2026-06-05",
    "endDate": "2026-06-07",
    "address": "Georgia Beekeeping Institute",
    "city": "Atlanta",
    "state": "Georgia",
    "latitude": 33.7490,
    "longitude": -84.3880,
    "imageUrl": "https://pub-2a6fcddb688c4e789a45f1a91c601c77.r2.dev/events/queen-rearing.webp",
    "thumbnailUrl": "https://pub-2a6fcddb688c4e789a45f1a91c601c77.r2.dev/events/thumbnails/queen-rearing.webp",
    "link": "https://gabeekeeper.example.com/courses"
  },
  {
    "name": "Hawaii Tropical Honey Tour",
    "description": "Visit Big Island apiaries producing ohia lehua, macadamia, and white kiawe honeys. Includes volcanic honey terroir explanation and tastings.",
    "eventType": "TOUR",
    "startDate": "2026-07-01",
    "endDate": "2026-09-30",
    "address": "Hawaii Bee and Honey",
    "city": "Kailua-Kona",
    "state": "Hawaii",
    "latitude": 19.6400,
    "longitude": -155.9969,
    "imageUrl": "https://pub-2a6fcddb688c4e789a45f1a91c601c77.r2.dev/events/hawaii-tour.webp",
    "thumbnailUrl": "https://pub-2a6fcddb688c4e789a45f1a91c601c77.r2.dev/events/thumbnails/hawaii-tour.webp",
    "link": "https://hawaiibee.example.com/tours"
  }
]
