[
  {
    "name": "Sweet Valley Apiaries",
    "sourceType": "BEEKEEPER",
    "description": "Third-generation family beekeeping operation specializing in raw, unfiltered honey from wildflower meadows.",
    "address": "1234 Honeybee Lane",
    "city": "Burlington",
    "state": "Vermont",
    "zipCode": "05401",
    "latitude": 44.4759,
    "longitude": -73.2121,
    "phone": "(555) 234-5678",
    "email": "info@sweetvalleyapiaries.com",
    "website": "https://sweetvalleyapiaries.com",
    "hoursJson": "{\"mon\":\"By appointment\",\"tue\":\"By appointment\",\"wed\":\"9am-3pm\",\"thu\":\"9am-3pm\",\"fri\":\"9am-3pm\",\"sat\":\"8am-12pm\",\"sun\":\"Closed\"}",
    "heroImageUrl": "https://pub-2a6fcddb688c4e789a45f1a91c601c77.r2.dev/sources/sweet-valley-apiaries.webp",
    "thumbnailUrl": "https://pub-2a6fcddb688c4e789a45f1a91c601c77.r2.dev/sources/thumbnails/sweet-valley-apiaries.webp",
    "instagramHandle": "@sweetvalleybees",
    "facebookUrl": "https://facebook.com/sweetvalleyapiaries"
  },
  {
    "name": "Highlands Honey Farm",
    "sourceType": "FARM",
    "description": "Sustainable honey farm in the Blue Ridge Mountains producing sourwood and wildflower varieties.",
    "address": "567 Mountain View Road",
    "city": "Asheville",
    "state": "North Carolina",
    "zipCode": "28801",
    "latitude": 35.5951,
    "longitude": -82.5515,
    "phone": "(555) 345-6789",
    "email": "hello@highlandshoneyfarm.com",
    "website": "https://highlandshoneyfarm.com",
    "hoursJson": "{\"mon\":\"Closed\",\"tue\":\"10am-5pm\",\"wed\":\"10am-5pm\",\"thu\":\"10am-5pm\",\"fri\":\"10am-5pm\",\"sat\":\"9am-4pm\",\"sun\":\"11am-3pm\"}",
    "heroImageUrl": "https://pub-2a6fcddb688c4e789a45f1a91c601c77.r2.dev/sources/highlands-honey-farm.webp",
    "thumbnailUrl": "https://pub-2a6fcddb688c4e789a45f1a91c601c77.r2.dev/sources/thumbnails/highlands-honey-farm.webp",
    "instagramHandle": "@highlandshoney",
    "facebookUrl": "https://facebook.com/highlandshoneyfarm"
  },
  {
    "name": "Portland Saturday Market",
    "sourceType": "FARMERS_MARKET",
    "description": "Oregon's largest open-air arts and crafts market featuring multiple local honey vendors.",
    "address": "2 SW Naito Parkway",
    "city": "Portland",
    "state": "Oregon",
    "zipCode": "97204",
    "latitude": 45.5231,
    "longitude": -122.6765,
    "phone": "(555) 456-7890",
    "email": "info@portlandsaturdaymarket.com",
    "website": "https://portlandsaturdaymarket.com",
    "hoursJson": "{\"mon\":\"Closed\",\"tue\":\"Closed\",\"wed\":\"Closed\",\"thu\":\"Closed\",\"fri\":\"Closed\",\"sat\":\"10am-5pm\",\"sun\":\"11am-4:30pm\"}",
    "heroImageUrl": "https://pub-2a6fcddb688c4e789a45f1a91c601c77.r2.dev/sources/portland-saturday-market.webp",
    "thumbnailUrl": "https://pub-2a6fcddb688c4e789a45f1a91c601c77.r2.dev/sources/thumbnails/portland-saturday-market.webp",
    "instagramHandle": "@portlandsatmkt",
    "facebookUrl": "https://facebook.com/portlandsaturdaymarket"
  },
  {
    "name": "Golden State Apiary",
    "sourceType": "APIARY",
    "description": "Large-scale California apiary producing orange blossom, sage, and avocado honeys.",
    "address": "8901 Citrus Grove Drive",
    "city": "Bakersfield",
    "state": "California",
    "zipCode": "93301",
    "latitude": 35.3733,
    "longitude": -119.0187,
    "phone": "(555) 567-8901",
    "email": "contact@goldenstateapiary.com",
    "website": "https://goldenstateapiary.com",
    "hoursJson": "{\"mon\":\"8am-4pm\",\"tue\":\"8am-4pm\",\"wed\":\"8am-4pm\",\"thu\":\"8am-4pm\",\"fri\":\"8am-4pm\",\"sat\":\"By appointment\",\"sun\":\"Closed\"}",
    "heroImageUrl": "https://pub-2a6fcddb688c4e789a45f1a91c601c77.r2.dev/sources/golden-state-apiary.webp",
    "thumbnailUrl": "https://pub-2a6fcddb688c4e789a45f1a91c601c77.r2.dev/sources/thumbnails/golden-state-apiary.webp",
    "instagramHandle": "@goldenstateapiary",
    "facebookUrl": null
  },
  {
    "name": "The Honey House",
    "sourceType": "STORE",
    "description": "Specialty honey shop featuring over 50 varieties from around the world.",
    "address": "234 Main Street",
    "city": "Savannah",
    "state": "Georgia",
    "zipCode": "31401",
    "latitude": 32.0809,
    "longitude": -81.0912,
    "phone": "(555) 678-9012",
    "email": "shop@thehoneyhouse.com",
    "website": "https://thehoneyhouse.com",
    "hoursJson": "{\"mon\":\"10am-6pm\",\"tue\":\"10am-6pm\",\"wed\":\"10am-6pm\",\"thu\":\"10am-6pm\",\"fri\":\"10am-8pm\",\"sat\":\"10am-8pm\",\"sun\":\"12pm-5pm\"}",
    "heroImageUrl": "https://pub-2a6fcddb688c4e789a45f1a91c601c77.r2.dev/sources/the-honey-house.webp",
    "thumbnailUrl": "https://pub-2a6fcddb688c4e789a45f1a91c601c77.r2.dev/sources/thumbnails/the-honey-house.webp",
    "instagramHandle": "@honeyhouse_savannah",
    "facebookUrl": "https://facebook.com/thehoneyhouse"
  },
  {
    "name": "Lone Star Beekeepers Cooperative",
    "sourceType": "COOPERATIVE",
    "description": "Texas beekeeping cooperative uniting small-scale producers across the Hill Country.",
    "address": "456 Ranch Road",
    "city": "Fredericksburg",
    "state": "Texas",
    "zipCode": "78624",
    "latitude": 30.2752,
    "longitude": -98.872,
    "phone": "(555) 789-0123",
    "email": "info@lonestarbeekeepers.coop",
    "website": "https://lonestarbeekeepers.coop",
    "hoursJson": "{\"mon\":\"9am-5pm\",\"tue\":\"9am-5pm\",\"wed\":\"9am-5pm\",\"thu\":\"9am-5pm\",\"fri\":\"9am-5pm\",\"sat\":\"9am-2pm\",\"sun\":\"Closed\"}",
    "heroImageUrl": "https://pub-2a6fcddb688c4e789a45f1a91c601c77.r2.dev/sources/lone-star-beekeepers-cooperative.webp",
    "thumbnailUrl": "https://pub-2a6fcddb688c4e789a45f1a91c601c77.r2.dev/sources/thumbnails/lone-star-beekeepers-cooperative.webp",
    "instagramHandle": "@lonestarbeekeepers",
    "facebookUrl": "https://facebook.com/lonestarbeekeepers"
  },
  {
    "name": "Maine Coast Honey",
    "sourceType": "BEEKEEPER",
    "description": "Coastal Maine beekeeper producing wild blueberry and cranberry blossom honey.",
    "address": "78 Harbor View Road",
    "city": "Bar Harbor",
    "state": "Maine",
    "zipCode": "04609",
    "latitude": 44.3876,
    "longitude": -68.2039,
    "phone": "(555) 890-1234",
    "email": "hello@mainecoasthoney.com",
    "website": "https://mainecoasthoney.com",
    "hoursJson": "{\"mon\":\"By appointment\",\"tue\":\"By appointment\",\"wed\":\"By appointment\",\"thu\":\"By appointment\",\"fri\":\"10am-4pm\",\"sat\":\"9am-3pm\",\"sun\":\"Closed\"}",
    "heroImageUrl": "https://pub-2a6fcddb688c4e789a45f1a91c601c77.r2.dev/sources/maine-coast-honey.webp",
    "thumbnailUrl": "https://pub-2a6fcddb688c4e789a45f1a91c601c77.r2.dev/sources/thumbnails/maine-coast-honey.webp",
    "instagramHandle": "@mainecoasthoney",
    "facebookUrl": null
  },
  {
    "name": "Ozark Mountain Apiaries",
    "sourceType": "APIARY",
    "description": "Family-owned apiary in the Ozark Mountains producing clover and wildflower honey.",
    "address": "1200 Forest Trail",
    "city": "Fayetteville",
    "state": "Arkansas",
    "zipCode": "72701",
    "latitude": 36.0822,
    "longitude": -94.1719,
    "phone": "(555) 901-2345",
    "email": "bees@ozarkmountainapiaries.com",
    "website": "https://ozarkmountainapiaries.com",
    "hoursJson": "{\"mon\":\"Closed\",\"tue\":\"9am-4pm\",\"wed\":\"9am-4pm\",\"thu\":\"9am-4pm\",\"fri\":\"9am-4pm\",\"sat\":\"8am-1pm\",\"sun\":\"Closed\"}",
    "heroImageUrl": "https://pub-2a6fcddb688c4e789a45f1a91c601c77.r2.dev/sources/ozark-mountain-apiaries.webp",
    "thumbnailUrl": "https://pub-2a6fcddb688c4e789a45f1a91c601c77.r2.dev/sources/thumbnails/ozark-mountain-apiaries.webp",
    "instagramHandle": "@ozarkbees",
    "facebookUrl": "https://facebook.com/ozarkmountainapiaries"
  },
  {
    "name": "Santa Fe Farmers Market",
    "sourceType": "FARMERS_MARKET",
    "description": "Historic New Mexico farmers market with local desert wildflower and mesquite honey.",
    "address": "1607 Paseo de Peralta",
    "city": "Santa Fe",
    "state": "New Mexico",
    "zipCode": "87501",
    "latitude": 35.687,
    "longitude": -105.9378,
    "phone": "(555) 012-3456",
    "email": "market@santafefarmersmarket.com",
    "website": "https://santafefarmersmarket.com",
    "hoursJson": "{\"mon\":\"Closed\",\"tue\":\"8am-1pm\",\"wed\":\"Closed\",\"thu\":\"Closed\",\"fri\":\"Closed\",\"sat\":\"8am-1pm\",\"sun\":\"Closed\"}",
    "heroImageUrl": "https://pub-2a6fcddb688c4e789a45f1a91c601c77.r2.dev/sources/santa-fe-farmers-market.webp",
    "thumbnailUrl": "https://pub-2a6fcddb688c4e789a45f1a91c601c77.r2.dev/sources/thumbnails/santa-fe-farmers-market.webp",
    "instagramHandle": "@santafefarmersmarket",
    "facebookUrl": "https://facebook.com/santafefarmersmarket"
  },
  {
    "name": "Buckeye Bee Farm",
    "sourceType": "FARM",
    "description": "Ohio honey farm specializing in buckwheat and clover varieties.",
    "address": "3456 Country Road 12",
    "city": "Wooster",
    "state": "Ohio",
    "zipCode": "44691",
    "latitude": 40.8051,
    "longitude": -81.9351,
    "phone": "(555) 123-4567",
    "email": "info@buckeyebeefarm.com",
    "website": "https://buckeyebeefarm.com",
    "hoursJson": "{\"mon\":\"Closed\",\"tue\":\"10am-5pm\",\"wed\":\"10am-5pm\",\"thu\":\"10am-5pm\",\"fri\":\"10am-5pm\",\"sat\":\"9am-4pm\",\"sun\":\"Closed\"}",
    "heroImageUrl": "https://pub-2a6fcddb688c4e789a45f1a91c601c77.r2.dev/sources/buckeye-bee-farm.webp",
    "thumbnailUrl": "https://pub-2a6fcddb688c4e789a45f1a91c601c77.r2.dev/sources/thumbnails/buckeye-bee-farm.webp",
    "instagramHandle": "@buckeyebeefarm",
    "facebookUrl": "https://facebook.com/buckeyebeefarm"
  },
  {
    "name": "Desert Bloom Honey",
    "sourceType": "BEEKEEPER",
    "description": "Arizona beekeeper producing rare cactus blossom and mesquite honey.",
    "address": "789 Saguaro Way",
    "city": "Tucson",
    "state": "Arizona",
    "zipCode": "85701",
    "latitude": 32.2226,
    "longitude": -110.9747,
    "phone": "(555) 234-5678",
    "email": "honey@desertbloom.com",
    "website": "https://desertbloomhoney.com",
    "hoursJson": "{\"mon\":\"By appointment\",\"tue\":\"By appointment\",\"wed\":\"9am-3pm\",\"thu\":\"9am-3pm\",\"fri\":\"9am-3pm\",\"sat\":\"8am-12pm\",\"sun\":\"Closed\"}",
    "heroImageUrl": "https://pub-2a6fcddb688c4e789a45f1a91c601c77.r2.dev/sources/desert-bloom-honey.webp",
    "thumbnailUrl": "https://pub-2a6fcddb688c4e789a45f1a91c601c77.r2.dev/sources/thumbnails/desert-bloom-honey.webp",
    "instagramHandle": "@desertbloomhoney",
    "facebookUrl": null
  },
  {
    "name": "Pike Place Honey",
    "sourceType": "STORE",
    "description": "Seattle honey shop in the famous Pike Place Market offering Pacific Northwest varieties.",
    "address": "85 Pike Street",
    "city": "Seattle",
    "state": "Washington",
    "zipCode": "98101",
    "latitude": 47.6097,
    "longitude": -122.3422,
    "phone": "(555) 345-6789",
    "email": "shop@pikeplacehoney.com",
    "website": "https://pikeplacehoney.com",
    "hoursJson": "{\"mon\":\"10am-6pm\",\"tue\":\"10am-6pm\",\"wed\":\"10am-6pm\",\"thu\":\"10am-6pm\",\"fri\":\"10am-6pm\",\"sat\":\"9am-6pm\",\"sun\":\"10am-5pm\"}",
    "heroImageUrl": "https://pub-2a6fcddb688c4e789a45f1a91c601c77.r2.dev/sources/pike-place-honey.webp",
    "thumbnailUrl": "https://pub-2a6fcddb688c4e789a45f1a91c601c77.r2.dev/sources/thumbnails/pike-place-honey.webp",
    "instagramHandle": "@pikeplacehoney",
    "facebookUrl": "https://facebook.com/pikeplacehoney"
  },
  {
    "name": "Great Lakes Bee Company",
    "sourceType": "APIARY",
    "description": "Michigan apiary producing basswood, blueberry, and wildflower honeys.",
    "address": "567 Lakeshore Drive",
    "city": "Traverse City",
    "state": "Michigan",
    "zipCode": "49684",
    "latitude": 44.7631,
    "longitude": -85.6206,
    "phone": "(555) 456-7890",
    "email": "info@greatlakesbee.com",
    "website": "https://greatlakesbee.com",
    "hoursJson": "{\"mon\":\"9am-5pm\",\"tue\":\"9am-5pm\",\"wed\":\"9am-5pm\",\"thu\":\"9am-5pm\",\"fri\":\"9am-5pm\",\"sat\":\"10am-3pm\",\"sun\":\"Closed\"}",
    "heroImageUrl": "https://pub-2a6fcddb688c4e789a45f1a91c601c77.r2.dev/sources/great-lakes-bee-company.webp",
    "thumbnailUrl": "https://pub-2a6fcddb688c4e789a45f1a91c601c77.r2.dev/sources/thumbnails/great-lakes-bee-company.webp",
    "instagramHandle": "@greatlakesbee",
    "facebookUrl": "https://facebook.com/greatlakesbee"
  },
  {
    "name": "Florida Keys Apiary",
    "sourceType": "APIARY",
    "description": "Tropical apiary producing mangrove and orange blossom honey in the Florida Keys.",
    "address": "901 Overseas Highway",
    "city": "Key West",
    "state": "Florida",
    "zipCode": "33040",
    "latitude": 24.5551,
    "longitude": -81.78,
    "phone": "(555) 567-8901",
    "email": "honey@floridakeysapiary.com",
    "website": "https://floridakeysapiary.com",
    "hoursJson": "{\"mon\":\"10am-5pm\",\"tue\":\"10am-5pm\",\"wed\":\"10am-5pm\",\"thu\":\"10am-5pm\",\"fri\":\"10am-5pm\",\"sat\":\"10am-4pm\",\"sun\":\"11am-3pm\"}",
    "heroImageUrl": "https://pub-2a6fcddb688c4e789a45f1a91c601c77.r2.dev/sources/florida-keys-apiary.webp",
    "thumbnailUrl": "https://pub-2a6fcddb688c4e789a45f1a91c601c77.r2.dev/sources/thumbnails/florida-keys-apiary.webp",
    "instagramHandle": "@floridakeysapiary",
    "facebookUrl": "https://facebook.com/floridakeysapiary"
  },
  {
    "name": "Rocky Mountain Beekeepers",
    "sourceType": "COOPERATIVE",
    "description": "Colorado beekeeping cooperative promoting sustainable practices in mountain communities.",
    "address": "234 Alpine Road",
    "city": "Boulder",
    "state": "Colorado",
    "zipCode": "80302",
    "latitude": 40.015,
    "longitude": -105.2705,
    "phone": "(555) 678-9012",
    "email": "hello@rockymountainbeekeepers.org",
    "website": "https://rockymountainbeekeepers.org",
    "hoursJson": "{\"mon\":\"9am-4pm\",\"tue\":\"9am-4pm\",\"wed\":\"9am-4pm\",\"thu\":\"9am-4pm\",\"fri\":\"9am-4pm\",\"sat\":\"By appointment\",\"sun\":\"Closed\"}",
    "heroImageUrl": "https://pub-2a6fcddb688c4e789a45f1a91c601c77.r2.dev/sources/rocky-mountain-beekeepers.webp",
    "thumbnailUrl": "https://pub-2a6fcddb688c4e789a45f1a91c601c77.r2.dev/sources/thumbnails/rocky-mountain-beekeepers.webp",
    "instagramHandle": "@rockymtnbeekeepers",
    "facebookUrl": "https://facebook.com/rockymountainbeekeepers"
  },
  {
    "name": "Napa Valley Honey",
    "sourceType": "BEEKEEPER",
    "description": "Wine country beekeeper producing unique grape blossom and wildflower honeys.",
    "address": "4567 Vineyard Lane",
    "city": "Napa",
    "state": "California",
    "zipCode": "94558",
    "latitude": 38.2975,
    "longitude": -122.2869,
    "phone": "(555) 789-0123",
    "email": "info@napavalleyhoney.com",
    "website": "https://napavalleyhoney.com",
    "hoursJson": "{\"mon\":\"Closed\",\"tue\":\"10am-4pm\",\"wed\":\"10am-4pm\",\"thu\":\"10am-4pm\",\"fri\":\"10am-4pm\",\"sat\":\"9am-5pm\",\"sun\":\"10am-3pm\"}",
    "heroImageUrl": "https://pub-2a6fcddb688c4e789a45f1a91c601c77.r2.dev/sources/napa-valley-honey.webp",
    "thumbnailUrl": "https://pub-2a6fcddb688c4e789a45f1a91c601c77.r2.dev/sources/thumbnails/napa-valley-honey.webp",
    "instagramHandle": "@napavalleyhoney",
    "facebookUrl": "https://facebook.com/napavalleyhoney"
  },
  {
    "name": "Union Square Greenmarket",
    "sourceType": "FARMERS_MARKET",
    "description": "New York City's premier farmers market featuring Hudson Valley honey producers.",
    "address": "E 17th St & Union Square W",
    "city": "New York",
    "state": "New York",
    "zipCode": "10003",
    "latitude": 40.7359,
    "longitude": -73.9911,
    "phone": "(555) 890-1234",
    "email": "info@grownyc.org",
    "website": "https://grownyc.org/greenmarket/manhattan-union-square",
    "hoursJson": "{\"mon\":\"8am-6pm\",\"tue\":\"Closed\",\"wed\":\"8am-6pm\",\"thu\":\"Closed\",\"fri\":\"8am-6pm\",\"sat\":\"8am-6pm\",\"sun\":\"Closed\"}",
    "heroImageUrl": "https://pub-2a6fcddb688c4e789a45f1a91c601c77.r2.dev/sources/union-square-greenmarket.webp",
    "thumbnailUrl": "https://pub-2a6fcddb688c4e789a45f1a91c601c77.r2.dev/sources/thumbnails/union-square-greenmarket.webp",
    "instagramHandle": "@grownyc",
    "facebookUrl": "https://facebook.com/grownyc"
  },
  {
    "name": "Prairie Wind Apiaries",
    "sourceType": "APIARY",
    "description": "North Dakota apiary producing premium clover honey from prairie lands.",
    "address": "8901 Highway 2",
    "city": "Minot",
    "state": "North Dakota",
    "zipCode": "58701",
    "latitude": 48.233,
    "longitude": -101.2923,
    "phone": "(555) 901-2345",
    "email": "honey@prairiewindapiaries.com",
    "website": "https://prairiewindapiaries.com",
    "hoursJson": "{\"mon\":\"8am-4pm\",\"tue\":\"8am-4pm\",\"wed\":\"8am-4pm\",\"thu\":\"8am-4pm\",\"fri\":\"8am-4pm\",\"sat\":\"By appointment\",\"sun\":\"Closed\"}",
    "heroImageUrl": "https://pub-2a6fcddb688c4e789a45f1a91c601c77.r2.dev/sources/prairie-wind-apiaries.webp",
    "thumbnailUrl": "https://pub-2a6fcddb688c4e789a45f1a91c601c77.r2.dev/sources/thumbnails/prairie-wind-apiaries.webp",
    "instagramHandle": null,
    "facebookUrl": "https://facebook.com/prairiewindapiaries"
  },
  {
    "name": "Smoky Mountain Bee Farm",
    "sourceType": "FARM",
    "description": "Tennessee honey farm producing sourwood and tulip poplar honeys in the Great Smokies.",
    "address": "123 Mountain View Lane",
    "city": "Gatlinburg",
    "state": "Tennessee",
    "zipCode": "37738",
    "latitude": 35.7143,
    "longitude": -83.5102,
    "phone": "(555) 012-3456",
    "email": "info@smokymountainbeefarm.com",
    "website": "https://smokymountainbeefarm.com",
    "hoursJson": "{\"mon\":\"10am-5pm\",\"tue\":\"10am-5pm\",\"wed\":\"10am-5pm\",\"thu\":\"10am-5pm\",\"fri\":\"10am-5pm\",\"sat\":\"9am-6pm\",\"sun\":\"11am-4pm\"}",
    "heroImageUrl": "https://pub-2a6fcddb688c4e789a45f1a91c601c77.r2.dev/sources/smoky-mountain-bee-farm.webp",
    "thumbnailUrl": "https://pub-2a6fcddb688c4e789a45f1a91c601c77.r2.dev/sources/thumbnails/smoky-mountain-bee-farm.webp",
    "instagramHandle": "@smokymtnbees",
    "facebookUrl": "https://facebook.com/smokymountainbeefarm"
  },
  {
    "name": "Willamette Valley Bees",
    "sourceType": "BEEKEEPER",
    "description": "Oregon beekeeper producing meadowfoam and clover honey in the Willamette Valley.",
    "address": "456 Valley View Road",
    "city": "Eugene",
    "state": "Oregon",
    "zipCode": "97401",
    "latitude": 44.0521,
    "longitude": -123.0868,
    "phone": "(555) 123-4567",
    "email": "bees@willamettevalleybees.com",
    "website": "https://willamettevalleybees.com",
    "hoursJson": "{\"mon\":\"By appointment\",\"tue\":\"By appointment\",\"wed\":\"10am-4pm\",\"thu\":\"10am-4pm\",\"fri\":\"10am-4pm\",\"sat\":\"9am-2pm\",\"sun\":\"Closed\"}",
    "heroImageUrl": "https://pub-2a6fcddb688c4e789a45f1a91c601c77.r2.dev/sources/willamette-valley-bees.webp",
    "thumbnailUrl": "https://pub-2a6fcddb688c4e789a45f1a91c601c77.r2.dev/sources/thumbnails/willamette-valley-bees.webp",
    "instagramHandle": "@willamettevalleybees",
    "facebookUrl": null
  },
  {
    "name": "Charleston City Market Honey",
    "sourceType": "STORE",
    "description": "Historic Charleston market vendor specializing in Lowcountry tupelo and gallberry honey.",
    "address": "188 Meeting Street",
    "city": "Charleston",
    "state": "South Carolina",
    "zipCode": "29401",
    "latitude": 32.7876,
    "longitude": -79.9356,
    "phone": "(555) 234-5678",
    "email": "honey@charlestoncitymarket.com",
    "website": "https://charlestoncitymarkethoney.com",
    "hoursJson": "{\"mon\":\"10am-6pm\",\"tue\":\"10am-6pm\",\"wed\":\"10am-6pm\",\"thu\":\"10am-6pm\",\"fri\":\"10am-6pm\",\"sat\":\"10am-5pm\",\"sun\":\"12pm-5pm\"}",
    "heroImageUrl": "https://pub-2a6fcddb688c4e789a45f1a91c601c77.r2.dev/sources/charleston-city-market-honey.webp",
    "thumbnailUrl": "https://pub-2a6fcddb688c4e789a45f1a91c601c77.r2.dev/sources/thumbnails/charleston-city-market-honey.webp",
    "instagramHandle": "@charlestonhoney",
    "facebookUrl": "https://facebook.com/charlestoncitymarkethoney"
  },
  {
    "name": "Hill Country Honey",
    "sourceType": "BEEKEEPER",
    "description": "Texas Hill Country beekeeper producing wildflower and huajillo honey.",
    "address": "789 Ranch Road 12",
    "city": "Wimberley",
    "state": "Texas",
    "zipCode": "78676",
    "latitude": 29.9974,
    "longitude": -98.0986,
    "phone": "(555) 345-6789",
    "email": "info@hillcountryhoney.com",
    "website": "https://hillcountryhoney.com",
    "hoursJson": "{\"mon\":\"Closed\",\"tue\":\"By appointment\",\"wed\":\"By appointment\",\"thu\":\"By appointment\",\"fri\":\"10am-4pm\",\"sat\":\"9am-3pm\",\"sun\":\"Closed\"}",
    "heroImageUrl": "https://pub-2a6fcddb688c4e789a45f1a91c601c77.r2.dev/sources/hill-country-honey.webp",
    "thumbnailUrl": "https://pub-2a6fcddb688c4e789a45f1a91c601c77.r2.dev/sources/thumbnails/hill-country-honey.webp",
    "instagramHandle": "@hillcountryhoney",
    "facebookUrl": "https://facebook.com/hillcountryhoneytx"
  },
  {
    "name": "Minnesota Honey Cooperative",
    "sourceType": "COOPERATIVE",
    "description": "Cooperative of Minnesota beekeepers producing clover, buckwheat, and basswood honeys.",
    "address": "567 Lake Street",
    "city": "Minneapolis",
    "state": "Minnesota",
    "zipCode": "55407",
    "latitude": 44.9778,
    "longitude": -93.265,
    "phone": "(555) 456-7890",
    "email": "info@mnhoneycoop.org",
    "website": "https://mnhoneycoop.org",
    "hoursJson": "{\"mon\":\"10am-5pm\",\"tue\":\"10am-5pm\",\"wed\":\"10am-5pm\",\"thu\":\"10am-5pm\",\"fri\":\"10am-5pm\",\"sat\":\"9am-3pm\",\"sun\":\"Closed\"}",
    "heroImageUrl": "https://pub-2a6fcddb688c4e789a45f1a91c601c77.r2.dev/sources/minnesota-honey-cooperative.webp",
    "thumbnailUrl": "https://pub-2a6fcddb688c4e789a45f1a91c601c77.r2.dev/sources/thumbnails/minnesota-honey-cooperative.webp",
    "instagramHandle": "@mnhoneycoop",
    "facebookUrl": "https://facebook.com/mnhoneycooperative"
  },
  {
    "name": "Shenandoah Valley Apiaries",
    "sourceType": "APIARY",
    "description": "Virginia apiary in the Shenandoah Valley producing black locust and wildflower honeys.",
    "address": "1234 Valley Pike",
    "city": "Staunton",
    "state": "Virginia",
    "zipCode": "24401",
    "latitude": 38.1496,
    "longitude": -79.0717,
    "phone": "(555) 567-8901",
    "email": "honey@shenandoahvalleyapiaries.com",
    "website": "https://shenandoahvalleyapiaries.com",
    "hoursJson": "{\"mon\":\"Closed\",\"tue\":\"9am-4pm\",\"wed\":\"9am-4pm\",\"thu\":\"9am-4pm\",\"fri\":\"9am-4pm\",\"sat\":\"8am-1pm\",\"sun\":\"Closed\"}",
    "heroImageUrl": "https://pub-2a6fcddb688c4e789a45f1a91c601c77.r2.dev/sources/shenandoah-valley-apiaries.webp",
    "thumbnailUrl": "https://pub-2a6fcddb688c4e789a45f1a91c601c77.r2.dev/sources/thumbnails/shenandoah-valley-apiaries.webp",
    "instagramHandle": "@shenandoahbees",
    "facebookUrl": "https://facebook.com/shenandoahvalleyapiaries"
  },
  {
    "name": "Atlanta State Farmers Market",
    "sourceType": "FARMERS_MARKET",
    "description": "Georgia's largest farmers market with multiple honey vendors from across the Southeast.",
    "address": "16 Forest Parkway",
    "city": "Forest Park",
    "state": "Georgia",
    "zipCode": "30297",
    "latitude": 33.6214,
    "longitude": -84.3688,
    "phone": "(555) 678-9012",
    "email": "info@atlantastatemarketga.gov",
    "website": "https://agr.georgia.gov/state-farmers-markets",
    "hoursJson": "{\"mon\":\"6am-6pm\",\"tue\":\"6am-6pm\",\"wed\":\"6am-6pm\",\"thu\":\"6am-6pm\",\"fri\":\"6am-6pm\",\"sat\":\"6am-6pm\",\"sun\":\"6am-6pm\"}",
    "heroImageUrl": "https://pub-2a6fcddb688c4e789a45f1a91c601c77.r2.dev/sources/atlanta-state-farmers-market.webp",
    "thumbnailUrl": "https://pub-2a6fcddb688c4e789a45f1a91c601c77.r2.dev/sources/thumbnails/atlanta-state-farmers-market.webp",
    "instagramHandle": null,
    "facebookUrl": "https://facebook.com/gda.farmersmarkets"
  },
  {
    "name": "Tupelo Honey Farm",
    "sourceType": "FARM",
    "description": "Family farm specializing in rare white tupelo honey from the Apalachicola River basin.",
    "address": "456 River Road",
    "city": "Wewahitchka",
    "state": "Florida",
    "zipCode": "32465",
    "latitude": 30.1136,
    "longitude": -85.1991,
    "phone": "(555) 789-0123",
    "email": "info@tupelohoneyfarm.com",
    "website": "https://tupelohoneyfarm.com",
    "hoursJson": "{\"mon\":\"9am-4pm\",\"tue\":\"9am-4pm\",\"wed\":\"9am-4pm\",\"thu\":\"9am-4pm\",\"fri\":\"9am-4pm\",\"sat\":\"9am-12pm\",\"sun\":\"Closed\"}",
    "heroImageUrl": "https://pub-2a6fcddb688c4e789a45f1a91c601c77.r2.dev/sources/tupelo-honey-farm.webp",
    "thumbnailUrl": "https://pub-2a6fcddb688c4e789a45f1a91c601c77.r2.dev/sources/thumbnails/tupelo-honey-farm.webp",
    "instagramHandle": "@tupelohoneyfarm",
    "facebookUrl": "https://facebook.com/tupelohoneyfarm"
  },
  {
    "name": "Pennsylvania Dutch Honey",
    "sourceType": "BEEKEEPER",
    "description": "Amish country beekeeper producing buckwheat and clover honeys using traditional methods.",
    "address": "789 Old Philadelphia Pike",
    "city": "Bird-in-Hand",
    "state": "Pennsylvania",
    "zipCode": "17505",
    "latitude": 40.0576,
    "longitude": -76.1821,
    "phone": "(555) 890-1234",
    "email": "honey@padutchhoney.com",
    "website": "https://padutchhoney.com",
    "hoursJson": "{\"mon\":\"9am-5pm\",\"tue\":\"9am-5pm\",\"wed\":\"9am-5pm\",\"thu\":\"9am-5pm\",\"fri\":\"9am-5pm\",\"sat\":\"9am-4pm\",\"sun\":\"Closed\"}",
    "heroImageUrl": "https://pub-2a6fcddb688c4e789a45f1a91c601c77.r2.dev/sources/pennsylvania-dutch-honey.webp",
    "thumbnailUrl": "https://pub-2a6fcddb688c4e789a45f1a91c601c77.r2.dev/sources/thumbnails/pennsylvania-dutch-honey.webp",
    "instagramHandle": null,
    "facebookUrl": "https://facebook.com/padutchhoney"
  },
  {
    "name": "San Diego Beekeeping Society",
    "sourceType": "COOPERATIVE",
    "description": "San Diego area beekeeping cooperative promoting urban beekeeping and local honey sales.",
    "address": "2100 Park Blvd",
    "city": "San Diego",
    "state": "California",
    "zipCode": "92101",
    "latitude": 32.7316,
    "longitude": -117.1521,
    "phone": "(555) 901-2345",
    "email": "info@sdbeekeeping.org",
    "website": "https://sdbeekeeping.org",
    "hoursJson": "{\"mon\":\"By appointment\",\"tue\":\"By appointment\",\"wed\":\"6pm-8pm\",\"thu\":\"By appointment\",\"fri\":\"By appointment\",\"sat\":\"10am-2pm\",\"sun\":\"Closed\"}",
    "heroImageUrl": "https://pub-2a6fcddb688c4e789a45f1a91c601c77.r2.dev/sources/san-diego-beekeeping-society.webp",
    "thumbnailUrl": "https://pub-2a6fcddb688c4e789a45f1a91c601c77.r2.dev/sources/thumbnails/san-diego-beekeeping-society.webp",
    "instagramHandle": "@sdbeekeeping",
    "facebookUrl": "https://facebook.com/sdbeekeepingsociety"
  },
  {
    "name": "Montana Mountain Honey",
    "sourceType": "BEEKEEPER",
    "description": "Big Sky country beekeeper producing clover and wildflower honey from mountain meadows.",
    "address": "567 Meadowlark Lane",
    "city": "Bozeman",
    "state": "Montana",
    "zipCode": "59715",
    "latitude": 45.677,
    "longitude": -111.0429,
    "phone": "(555) 012-3456",
    "email": "info@montanamountainhoney.com",
    "website": "https://montanamountainhoney.com",
    "hoursJson": "{\"mon\":\"By appointment\",\"tue\":\"By appointment\",\"wed\":\"10am-4pm\",\"thu\":\"10am-4pm\",\"fri\":\"10am-4pm\",\"sat\":\"9am-1pm\",\"sun\":\"Closed\"}",
    "heroImageUrl": "https://pub-2a6fcddb688c4e789a45f1a91c601c77.r2.dev/sources/montana-mountain-honey.webp",
    "thumbnailUrl": "https://pub-2a6fcddb688c4e789a45f1a91c601c77.r2.dev/sources/thumbnails/montana-mountain-honey.webp",
    "instagramHandle": "@montanamtnhoney",
    "facebookUrl": null
  },
  {
    "name": "Denver Botanic Gardens Apiary",
    "sourceType": "APIARY",
    "description": "Educational apiary at Denver Botanic Gardens producing urban wildflower honey.",
    "address": "1007 York Street",
    "city": "Denver",
    "state": "Colorado",
    "zipCode": "80206",
    "latitude": 39.7323,
    "longitude": -104.9583,
    "phone": "(555) 123-4567",
    "email": "bees@botanicgardens.org",
    "website": "https://botanicgardens.org/bees",
    "hoursJson": "{\"mon\":\"9am-5pm\",\"tue\":\"9am-5pm\",\"wed\":\"9am-5pm\",\"thu\":\"9am-5pm\",\"fri\":\"9am-5pm\",\"sat\":\"9am-5pm\",\"sun\":\"9am-5pm\"}",
    "heroImageUrl": "https://pub-2a6fcddb688c4e789a45f1a91c601c77.r2.dev/sources/denver-botanic-gardens-apiary.webp",
    "thumbnailUrl": "https://pub-2a6fcddb688c4e789a45f1a91c601c77.r2.dev/sources/thumbnails/denver-botanic-gardens-apiary.webp",
    "instagramHandle": "@denverbotanicgardens",
    "facebookUrl": "https://facebook.com/denverbotanicgardens"
  },
  {
    "name": "Austin Honey Co",
    "sourceType": "BEEKEEPER",
    "description": "Austin urban beekeeper producing local wildflower and mesquite honey.",
    "address": "234 East 6th Street",
    "city": "Austin",
    "state": "Texas",
    "zipCode": "78701",
    "latitude": 30.2672,
    "longitude": -97.7431,
    "phone": "(555) 234-5678",
    "email": "hello@austinhoneyco.com",
    "website": "https://austinhoneyco.com",
    "hoursJson": "{\"mon\":\"10am-6pm\",\"tue\":\"10am-6pm\",\"wed\":\"10am-6pm\",\"thu\":\"10am-6pm\",\"fri\":\"10am-7pm\",\"sat\":\"9am-7pm\",\"sun\":\"11am-5pm\"}",
    "heroImageUrl": "https://pub-2a6fcddb688c4e789a45f1a91c601c77.r2.dev/sources/austin-honey-co.webp",
    "thumbnailUrl": "https://pub-2a6fcddb688c4e789a45f1a91c601c77.r2.dev/sources/thumbnails/austin-honey-co.webp",
    "instagramHandle": "@austinhoneyco",
    "facebookUrl": "https://facebook.com/austinhoneyco"
  },
  {
    "name": "New England Apiary",
    "sourceType": "APIARY",
    "description": "Connecticut apiary producing wildflower and goldenrod honey.",
    "address": "456 Farmington Avenue",
    "city": "Hartford",
    "state": "Connecticut",
    "zipCode": "06105",
    "latitude": 41.7658,
    "longitude": -72.7014,
    "phone": "(555) 345-6789",
    "email": "info@newenglandapiary.com",
    "website": "https://newenglandapiary.com",
    "hoursJson": "{\"mon\":\"Closed\",\"tue\":\"10am-4pm\",\"wed\":\"10am-4pm\",\"thu\":\"10am-4pm\",\"fri\":\"10am-4pm\",\"sat\":\"9am-2pm\",\"sun\":\"Closed\"}",
    "heroImageUrl": "https://pub-2a6fcddb688c4e789a45f1a91c601c77.r2.dev/sources/new-england-apiary.webp",
    "thumbnailUrl": "https://pub-2a6fcddb688c4e789a45f1a91c601c77.r2.dev/sources/thumbnails/new-england-apiary.webp",
    "instagramHandle": "@newenglandapiary",
    "facebookUrl": "https://facebook.com/newenglandapiary"
  },
  {
    "name": "Ferry Plaza Farmers Market",
    "sourceType": "FARMERS_MARKET",
    "description": "San Francisco's premier farmers market with artisan honey vendors from Northern California.",
    "address": "1 Ferry Building",
    "city": "San Francisco",
    "state": "California",
    "zipCode": "94111",
    "latitude": 37.7955,
    "longitude": -122.3937,
    "phone": "(555) 456-7890",
    "email": "info@ferryplazafarmersmarket.com",
    "website": "https://ferryplazafarmersmarket.com",
    "hoursJson": "{\"mon\":\"Closed\",\"tue\":\"10am-2pm\",\"wed\":\"Closed\",\"thu\":\"10am-2pm\",\"fri\":\"Closed\",\"sat\":\"8am-2pm\",\"sun\":\"Closed\"}",
    "heroImageUrl": "https://pub-2a6fcddb688c4e789a45f1a91c601c77.r2.dev/sources/ferry-plaza-farmers-market.webp",
    "thumbnailUrl": "https://pub-2a6fcddb688c4e789a45f1a91c601c77.r2.dev/sources/thumbnails/ferry-plaza-farmers-market.webp",
    "instagramHandle": "@ferryplazafarmers",
    "facebookUrl": "https://facebook.com/ferryplazafarmersmarket"
  },
  {
    "name": "Louisville Bee Farm",
    "sourceType": "FARM",
    "description": "Kentucky honey farm producing clover and wildflower honey with on-site tours.",
    "address": "789 Bardstown Road",
    "city": "Louisville",
    "state": "Kentucky",
    "zipCode": "40204",
    "latitude": 38.2254,
    "longitude": -85.7223,
    "phone": "(555) 567-8901",
    "email": "visit@louisvillebeefarm.com",
    "website": "https://louisvillebeefarm.com",
    "hoursJson": "{\"mon\":\"Closed\",\"tue\":\"10am-5pm\",\"wed\":\"10am-5pm\",\"thu\":\"10am-5pm\",\"fri\":\"10am-5pm\",\"sat\":\"9am-4pm\",\"sun\":\"12pm-4pm\"}",
    "heroImageUrl": "https://pub-2a6fcddb688c4e789a45f1a91c601c77.r2.dev/sources/louisville-bee-farm.webp",
    "thumbnailUrl": "https://pub-2a6fcddb688c4e789a45f1a91c601c77.r2.dev/sources/thumbnails/louisville-bee-farm.webp",
    "instagramHandle": "@louisvillebeefarm",
    "facebookUrl": "https://facebook.com/louisvillebeefarm"
  },
  {
    "name": "Santa Barbara Honey",
    "sourceType": "BEEKEEPER",
    "description": "California coastal beekeeper producing avocado, sage, and wildflower honeys.",
    "address": "567 State Street",
    "city": "Santa Barbara",
    "state": "California",
    "zipCode": "93101",
    "latitude": 34.4208,
    "longitude": -119.6982,
    "phone": "(555) 678-9012",
    "email": "info@santabarbarahoney.com",
    "website": "https://santabarbarahoney.com",
    "hoursJson": "{\"mon\":\"Closed\",\"tue\":\"10am-5pm\",\"wed\":\"10am-5pm\",\"thu\":\"10am-5pm\",\"fri\":\"10am-5pm\",\"sat\":\"9am-4pm\",\"sun\":\"Closed\"}",
    "heroImageUrl": "https://pub-2a6fcddb688c4e789a45f1a91c601c77.r2.dev/sources/santa-barbara-honey.webp",
    "thumbnailUrl": "https://pub-2a6fcddb688c4e789a45f1a91c601c77.r2.dev/sources/thumbnails/santa-barbara-honey.webp",
    "instagramHandle": "@santabarbarahoney",
    "facebookUrl": "https://facebook.com/santabarbarahoney"
  },
  {
    "name": "Hudson Valley Bee Supply",
    "sourceType": "STORE",
    "description": "Upstate New York shop specializing in local honey and beekeeping supplies.",
    "address": "123 Main Street",
    "city": "Rhinebeck",
    "state": "New York",
    "zipCode": "12572",
    "latitude": 41.9267,
    "longitude": -73.9126,
    "phone": "(555) 789-0123",
    "email": "shop@hudsonvalleybeesupply.com",
    "website": "https://hudsonvalleybeesupply.com",
    "hoursJson": "{\"mon\":\"10am-5pm\",\"tue\":\"10am-5pm\",\"wed\":\"10am-5pm\",\"thu\":\"10am-5pm\",\"fri\":\"10am-5pm\",\"sat\":\"9am-5pm\",\"sun\":\"11am-4pm\"}",
    "heroImageUrl": "https://pub-2a6fcddb688c4e789a45f1a91c601c77.r2.dev/sources/hudson-valley-bee-supply.webp",
    "thumbnailUrl": "https://pub-2a6fcddb688c4e789a45f1a91c601c77.r2.dev/sources/thumbnails/hudson-valley-bee-supply.webp",
    "instagramHandle": "@hudsonvalleybees",
    "facebookUrl": "https://facebook.com/hudsonvalleybeesupply"
  },
  {
    "name": "New Orleans French Market",
    "sourceType": "FARMERS_MARKET",
    "description": "Historic Louisiana market featuring Gulf Coast honey vendors and Cajun specialties.",
    "address": "1235 N Peters Street",
    "city": "New Orleans",
    "state": "Louisiana",
    "zipCode": "70116",
    "latitude": 29.9595,
    "longitude": -90.059,
    "phone": "(555) 890-1234",
    "email": "info@frenchmarket.org",
    "website": "https://frenchmarket.org",
    "hoursJson": "{\"mon\":\"10am-6pm\",\"tue\":\"10am-6pm\",\"wed\":\"10am-6pm\",\"thu\":\"10am-6pm\",\"fri\":\"10am-6pm\",\"sat\":\"10am-6pm\",\"sun\":\"10am-6pm\"}",
    "heroImageUrl": "https://pub-2a6fcddb688c4e789a45f1a91c601c77.r2.dev/sources/new-orleans-french-market.webp",
    "thumbnailUrl": "https://pub-2a6fcddb688c4e789a45f1a91c601c77.r2.dev/sources/thumbnails/new-orleans-french-market.webp",
    "instagramHandle": "@frenchmarketnola",
    "facebookUrl": "https://facebook.com/thefrenchmarket"
  },
  {
    "name": "Wisconsin Honey Producers",
    "sourceType": "COOPERATIVE",
    "description": "State-wide Wisconsin cooperative of beekeepers producing basswood, clover, and buckwheat honeys.",
    "address": "234 Capitol Square",
    "city": "Madison",
    "state": "Wisconsin",
    "zipCode": "53703",
    "latitude": 43.0731,
    "longitude": -89.4012,
    "phone": "(555) 901-2345",
    "email": "info@wihoneyproducers.org",
    "website": "https://wihoneyproducers.org",
    "hoursJson": "{\"mon\":\"9am-4pm\",\"tue\":\"9am-4pm\",\"wed\":\"9am-4pm\",\"thu\":\"9am-4pm\",\"fri\":\"9am-4pm\",\"sat\":\"By appointment\",\"sun\":\"Closed\"}",
    "heroImageUrl": "https://pub-2a6fcddb688c4e789a45f1a91c601c77.r2.dev/sources/wisconsin-honey-producers.webp",
    "thumbnailUrl": "https://pub-2a6fcddb688c4e789a45f1a91c601c77.r2.dev/sources/thumbnails/wisconsin-honey-producers.webp",
    "instagramHandle": "@wihoney",
    "facebookUrl": "https://facebook.com/wihoneyproducers"
  },
  {
    "name": "Phoenix Urban Bees",
    "sourceType": "BEEKEEPER",
    "description": "Phoenix urban beekeeper producing desert wildflower and citrus blossom honeys.",
    "address": "456 Roosevelt Row",
    "city": "Phoenix",
    "state": "Arizona",
    "zipCode": "85004",
    "latitude": 33.4484,
    "longitude": -112.074,
    "phone": "(555) 012-3456",
    "email": "honey@phoenixurbanbees.com",
    "website": "https://phoenixurbanbees.com",
    "hoursJson": "{\"mon\":\"By appointment\",\"tue\":\"By appointment\",\"wed\":\"10am-3pm\",\"thu\":\"10am-3pm\",\"fri\":\"10am-3pm\",\"sat\":\"9am-1pm\",\"sun\":\"Closed\"}",
    "heroImageUrl": "https://pub-2a6fcddb688c4e789a45f1a91c601c77.r2.dev/sources/phoenix-urban-bees.webp",
    "thumbnailUrl": "https://pub-2a6fcddb688c4e789a45f1a91c601c77.r2.dev/sources/thumbnails/phoenix-urban-bees.webp",
    "instagramHandle": "@phoenixurbanbees",
    "facebookUrl": null
  },
  {
    "name": "Alaskan Gold Honey",
    "sourceType": "BEEKEEPER",
    "description": "Alaska beekeeper producing rare fireweed and wildflower honeys in the Last Frontier.",
    "address": "789 Northern Lights Blvd",
    "city": "Anchorage",
    "state": "Alaska",
    "zipCode": "99503",
    "latitude": 61.1915,
    "longitude": -149.8636,
    "phone": "(555) 123-4567",
    "email": "info@alaskangoldhoney.com",
    "website": "https://alaskangoldhoney.com",
    "hoursJson": "{\"mon\":\"By appointment\",\"tue\":\"By appointment\",\"wed\":\"By appointment\",\"thu\":\"By appointment\",\"fri\":\"12pm-5pm\",\"sat\":\"10am-4pm\",\"sun\":\"Closed\"}",
    "heroImageUrl": "https://pub-2a6fcddb688c4e789a45f1a91c601c77.r2.dev/sources/alaskan-gold-honey.webp",
    "thumbnailUrl": "https://pub-2a6fcddb688c4e789a45f1a91c601c77.r2.dev/sources/thumbnails/alaskan-gold-honey.webp",
    "instagramHandle": "@alaskangoldhoney",
    "facebookUrl": "https://facebook.com/alaskangoldhoney"
  },
  {
    "name": "Sonoma Bee Company",
    "sourceType": "FARM",
    "description": "Wine country honey farm in Sonoma producing wildflower and varietal honeys.",
    "address": "123 Vineyard Road",
    "city": "Sonoma",
    "state": "California",
    "zipCode": "95476",
    "latitude": 38.2919,
    "longitude": -122.458,
    "phone": "(555) 234-5678",
    "email": "info@sonomabeecompany.com",
    "website": "https://sonomabeecompany.com",
    "hoursJson": "{\"mon\":\"Closed\",\"tue\":\"11am-5pm\",\"wed\":\"11am-5pm\",\"thu\":\"11am-5pm\",\"fri\":\"11am-5pm\",\"sat\":\"10am-6pm\",\"sun\":\"10am-4pm\"}",
    "heroImageUrl": "https://pub-2a6fcddb688c4e789a45f1a91c601c77.r2.dev/sources/sonoma-bee-company.webp",
    "thumbnailUrl": "https://pub-2a6fcddb688c4e789a45f1a91c601c77.r2.dev/sources/thumbnails/sonoma-bee-company.webp",
    "instagramHandle": "@sonomabees",
    "facebookUrl": "https://facebook.com/sonomabeecompany"
  },
  {
    "name": "Blue Ridge Honey Company",
    "sourceType": "FARM",
    "description": "Virginia honey farm in the Blue Ridge Mountains producing sourwood and wildflower honeys.",
    "address": "456 Blue Ridge Parkway",
    "city": "Roanoke",
    "state": "Virginia",
    "zipCode": "24011",
    "latitude": 37.271,
    "longitude": -79.9414,
    "phone": "(555) 345-6789",
    "email": "info@blueridgehoneyco.com",
    "website": "https://blueridgehoneyco.com",
    "hoursJson": "{\"mon\":\"Closed\",\"tue\":\"10am-5pm\",\"wed\":\"10am-5pm\",\"thu\":\"10am-5pm\",\"fri\":\"10am-5pm\",\"sat\":\"9am-4pm\",\"sun\":\"Closed\"}",
    "heroImageUrl": "https://pub-2a6fcddb688c4e789a45f1a91c601c77.r2.dev/sources/blue-ridge-honey-company.webp",
    "thumbnailUrl": "https://pub-2a6fcddb688c4e789a45f1a91c601c77.r2.dev/sources/thumbnails/blue-ridge-honey-company.webp",
    "instagramHandle": "@blueridgehoney",
    "facebookUrl": "https://facebook.com/blueridgehoneyco"
  },
  {
    "name": "Idaho Honey Company",
    "sourceType": "BEEKEEPER",
    "description": "Idaho beekeeper producing clover and wildflower honeys from pristine mountain meadows.",
    "address": "789 Pioneer Road",
    "city": "Boise",
    "state": "Idaho",
    "zipCode": "83702",
    "latitude": 43.615,
    "longitude": -116.2023,
    "phone": "(555) 456-7890",
    "email": "info@idahohoneyco.com",
    "website": "https://idahohoneyco.com",
    "hoursJson": "{\"mon\":\"By appointment\",\"tue\":\"By appointment\",\"wed\":\"10am-4pm\",\"thu\":\"10am-4pm\",\"fri\":\"10am-4pm\",\"sat\":\"9am-2pm\",\"sun\":\"Closed\"}",
    "heroImageUrl": "https://pub-2a6fcddb688c4e789a45f1a91c601c77.r2.dev/sources/idaho-honey-company.webp",
    "thumbnailUrl": "https://pub-2a6fcddb688c4e789a45f1a91c601c77.r2.dev/sources/thumbnails/idaho-honey-company.webp",
    "instagramHandle": "@idahohoneyco",
    "facebookUrl": null
  },
  {
    "name": "Nashville Farmers Market",
    "sourceType": "FARMERS_MARKET",
    "description": "Tennessee's largest year-round farmers market with local honey vendors.",
    "address": "900 Rosa L Parks Blvd",
    "city": "Nashville",
    "state": "Tennessee",
    "zipCode": "37208",
    "latitude": 36.1737,
    "longitude": -86.7914,
    "phone": "(555) 567-8901",
    "email": "info@nashvillefarmersmarket.org",
    "website": "https://nashvillefarmersmarket.org",
    "hoursJson": "{\"mon\":\"8am-6pm\",\"tue\":\"8am-6pm\",\"wed\":\"8am-6pm\",\"thu\":\"8am-6pm\",\"fri\":\"8am-6pm\",\"sat\":\"8am-6pm\",\"sun\":\"8am-5pm\"}",
    "heroImageUrl": "https://pub-2a6fcddb688c4e789a45f1a91c601c77.r2.dev/sources/nashville-farmers-market.webp",
    "thumbnailUrl": "https://pub-2a6fcddb688c4e789a45f1a91c601c77.r2.dev/sources/thumbnails/nashville-farmers-market.webp",
    "instagramHandle": "@nashfarmersmarket",
    "facebookUrl": "https://facebook.com/nashvillefarmersmarket"
  },
  {
    "name": "Utah Bee and Honey",
    "sourceType": "BEEKEEPER",
    "description": "Utah beekeeper producing clover and alfalfa honeys from the Great Basin region.",
    "address": "123 Beehive Way",
    "city": "Salt Lake City",
    "state": "Utah",
    "zipCode": "84101",
    "latitude": 40.7608,
    "longitude": -111.891,
    "phone": "(555) 678-9012",
    "email": "info@utahbeeandhoney.com",
    "website": "https://utahbeeandhoney.com",
    "hoursJson": "{\"mon\":\"10am-5pm\",\"tue\":\"10am-5pm\",\"wed\":\"10am-5pm\",\"thu\":\"10am-5pm\",\"fri\":\"10am-5pm\",\"sat\":\"9am-3pm\",\"sun\":\"Closed\"}",
    "heroImageUrl": "https://pub-2a6fcddb688c4e789a45f1a91c601c77.r2.dev/sources/utah-bee-and-honey.webp",
    "thumbnailUrl": "https://pub-2a6fcddb688c4e789a45f1a91c601c77.r2.dev/sources/thumbnails/utah-bee-and-honey.webp",
    "instagramHandle": "@utahbeeandhoney",
    "facebookUrl": "https://facebook.com/utahbeeandhoney"
  },
  {
    "name": "Baltimore Farmers Market",
    "sourceType": "FARMERS_MARKET",
    "description": "Maryland's largest farmers market featuring local honey producers from the Chesapeake region.",
    "address": "400 Saratoga Street",
    "city": "Baltimore",
    "state": "Maryland",
    "zipCode": "21201",
    "latitude": 39.2904,
    "longitude": -76.6122,
    "phone": "(555) 789-0123",
    "email": "info@baltimorefarmersmarket.org",
    "website": "https://baltimorefarmersmarket.org",
    "hoursJson": "{\"mon\":\"Closed\",\"tue\":\"Closed\",\"wed\":\"Closed\",\"thu\":\"Closed\",\"fri\":\"Closed\",\"sat\":\"7am-12pm\",\"sun\":\"7am-12pm\"}",
    "heroImageUrl": "https://pub-2a6fcddb688c4e789a45f1a91c601c77.r2.dev/sources/baltimore-farmers-market.webp",
    "thumbnailUrl": "https://pub-2a6fcddb688c4e789a45f1a91c601c77.r2.dev/sources/thumbnails/baltimore-farmers-market.webp",
    "instagramHandle": "@baltimorefm",
    "facebookUrl": "https://facebook.com/baltimorefarmersmarket"
  },
  {
    "name": "Hawaii Bee and Honey",
    "sourceType": "FARM",
    "description": "Big Island honey farm producing rare ohia lehua, macadamia, and white kiawe honeys.",
    "address": "456 Kona Coast Road",
    "city": "Kailua-Kona",
    "state": "Hawaii",
    "zipCode": "96740",
    "latitude": 19.64,
    "longitude": -155.9969,
    "phone": "(555) 890-1234",
    "email": "aloha@hawaiibeeandhoney.com",
    "website": "https://hawaiibeeandhoney.com",
    "hoursJson": "{\"mon\":\"9am-5pm\",\"tue\":\"9am-5pm\",\"wed\":\"9am-5pm\",\"thu\":\"9am-5pm\",\"fri\":\"9am-5pm\",\"sat\":\"10am-4pm\",\"sun\":\"10am-4pm\"}",
    "heroImageUrl": "https://pub-2a6fcddb688c4e789a45f1a91c601c77.r2.dev/sources/hawaii-bee-and-honey.webp",
    "thumbnailUrl": "https://pub-2a6fcddb688c4e789a45f1a91c601c77.r2.dev/sources/thumbnails/hawaii-bee-and-honey.webp",
    "instagramHandle": "@hawaiibees",
    "facebookUrl": "https://facebook.com/hawaiibeeandhoney"
  },
  {
    "name": "Oklahoma Honey Farms",
    "sourceType": "FARM",
    "description": "Oklahoma honey farm producing wildflower and clover honeys from prairie lands.",
    "address": "789 Prairie Road",
    "city": "Oklahoma City",
    "state": "Oklahoma",
    "zipCode": "73102",
    "latitude": 35.4676,
    "longitude": -97.5164,
    "phone": "(555) 901-2345",
    "email": "info@oklahomahoneyfarms.com",
    "website": "https://oklahomahoneyfarms.com",
    "hoursJson": "{\"mon\":\"Closed\",\"tue\":\"10am-5pm\",\"wed\":\"10am-5pm\",\"thu\":\"10am-5pm\",\"fri\":\"10am-5pm\",\"sat\":\"9am-3pm\",\"sun\":\"Closed\"}",
    "heroImageUrl": "https://pub-2a6fcddb688c4e789a45f1a91c601c77.r2.dev/sources/oklahoma-honey-farms.webp",
    "thumbnailUrl": "https://pub-2a6fcddb688c4e789a45f1a91c601c77.r2.dev/sources/thumbnails/oklahoma-honey-farms.webp",
    "instagramHandle": "@okhoneyfarms",
    "facebookUrl": "https://facebook.com/oklahomahoneyfarms"
  },
  {
    "name": "Iowa State Beekeepers",
    "sourceType": "COOPERATIVE",
    "description": "Iowa beekeeping cooperative promoting sustainable practices and local honey sales.",
    "address": "123 Capitol Way",
    "city": "Des Moines",
    "state": "Iowa",
    "zipCode": "50309",
    "latitude": 41.5868,
    "longitude": -93.625,
    "phone": "(555) 012-3456",
    "email": "info@iowabeekeepers.org",
    "website": "https://iowabeekeepers.org",
    "hoursJson": "{\"mon\":\"9am-4pm\",\"tue\":\"9am-4pm\",\"wed\":\"9am-4pm\",\"thu\":\"9am-4pm\",\"fri\":\"9am-4pm\",\"sat\":\"By appointment\",\"sun\":\"Closed\"}",
    "heroImageUrl": "https://pub-2a6fcddb688c4e789a45f1a91c601c77.r2.dev/sources/iowa-state-beekeepers.webp",
    "thumbnailUrl": "https://pub-2a6fcddb688c4e789a45f1a91c601c77.r2.dev/sources/thumbnails/iowa-state-beekeepers.webp",
    "instagramHandle": "@iowabeekeepers",
    "facebookUrl": "https://facebook.com/iowabeekeepers"
  },
  {
    "name": "West Virginia Honey",
    "sourceType": "BEEKEEPER",
    "description": "Mountain State beekeeper producing sourwood and wildflower honeys from Appalachian forests.",
    "address": "456 Mountain Road",
    "city": "Charleston",
    "state": "West Virginia",
    "zipCode": "25301",
    "latitude": 38.3498,
    "longitude": -81.6326,
    "phone": "(555) 123-4567",
    "email": "info@wvhoney.com",
    "website": "https://wvhoney.com",
    "hoursJson": "{\"mon\":\"By appointment\",\"tue\":\"By appointment\",\"wed\":\"10am-4pm\",\"thu\":\"10am-4pm\",\"fri\":\"10am-4pm\",\"sat\":\"9am-1pm\",\"sun\":\"Closed\"}",
    "heroImageUrl": "https://pub-2a6fcddb688c4e789a45f1a91c601c77.r2.dev/sources/west-virginia-honey.webp",
    "thumbnailUrl": "https://pub-2a6fcddb688c4e789a45f1a91c601c77.r2.dev/sources/thumbnails/west-virginia-honey.webp",
    "instagramHandle": "@wvhoney",
    "facebookUrl": null
  },
  {
    "name": "Kansas City Farmers Market",
    "sourceType": "FARMERS_MARKET",
    "description": "Missouri farmers market featuring honey from Kansas and Missouri beekeepers.",
    "address": "20 E 5th Street",
    "city": "Kansas City",
    "state": "Missouri",
    "zipCode": "64106",
    "latitude": 39.1016,
    "longitude": -94.5844,
    "phone": "(555) 234-5678",
    "email": "info@kcfarmersmarket.com",
    "website": "https://kcfarmersmarket.com",
    "hoursJson": "{\"mon\":\"Closed\",\"tue\":\"Closed\",\"wed\":\"7am-1pm\",\"thu\":\"Closed\",\"fri\":\"Closed\",\"sat\":\"7am-1pm\",\"sun\":\"Closed\"}",
    "heroImageUrl": "https://pub-2a6fcddb688c4e789a45f1a91c601c77.r2.dev/sources/kansas-city-farmers-market.webp",
    "thumbnailUrl": "https://pub-2a6fcddb688c4e789a45f1a91c601c77.r2.dev/sources/thumbnails/kansas-city-farmers-market.webp",
    "instagramHandle": "@kcfarmersmarket",
    "facebookUrl": "https://facebook.com/kcfarmersmarket"
  },
  {
    "name": "Indiana Honey",
    "sourceType": "BEEKEEPER",
    "description": "Indiana beekeeper producing clover, wildflower, and basswood honeys.",
    "address": "789 Hoosier Highway",
    "city": "Indianapolis",
    "state": "Indiana",
    "zipCode": "46204",
    "latitude": 39.7684,
    "longitude": -86.1581,
    "phone": "(555) 345-6789",
    "email": "info@indianahoney.com",
    "website": "https://indianahoney.com",
    "hoursJson": "{\"mon\":\"By appointment\",\"tue\":\"By appointment\",\"wed\":\"10am-4pm\",\"thu\":\"10am-4pm\",\"fri\":\"10am-4pm\",\"sat\":\"9am-2pm\",\"sun\":\"Closed\"}",
    "heroImageUrl": "https://pub-2a6fcddb688c4e789a45f1a91c601c77.r2.dev/sources/indiana-honey.webp",
    "thumbnailUrl": "https://pub-2a6fcddb688c4e789a45f1a91c601c77.r2.dev/sources/thumbnails/indiana-honey.webp",
    "instagramHandle": "@indianahoney",
    "facebookUrl": "https://facebook.com/indianahoney"
  }
]